__time,/cosine,/dict/a,/dict/b,/float,/int,/list[0],/list[1],/list[2],/mug/attitude/pitch,/mug/attitude/roll,/mug/attitude/yaw,/mug/position/x,/mug/position/y,/mug/position/z,/mug/setpoint/clamped pitch,/mug/setpoint/clamped roll,/mug/setpoint/yaw,/sine,/ts
1733870206.154110,0.996917334,1.000000000,2.000000000,5.500000000,5.000000000,1.000000000,2.000000000,3.000000000,,,,,,,,,,0.125333234,
1733870206.164260,0.987688341,1.000000000,2.000000000,5.500000000,5.000000000,1.000000000,2.000000000,3.000000000,,,,,,,,,,0.248689887,
1733870206.174420,0.972369920,1.000000000,2.000000000,5.500000000,5.000000000,1.000000000,2.000000000,3.000000000,,,,,,,,,,0.368124553,
1733870206.196573,0.951056516,1.000000000,2.000000000,5.500000000,5.000000000,1.000000000,2.000000000,3.000000000,,,,,,,,,,0.481753674,
1733870206.196600,0.923879533,1.000000000,2.000000000,5.500000000,5.000000000,1.000000000,2.000000000,3.000000000,,,,,,,,,,0.587785252,
1733870206.213420,0.891006524,1.000000000,2.000000000,5.500000000,5.000000000,1.000000000,2.000000000,3.000000000,,,,,,,,,,0.684547106,
1733870206.215338,0.852640164,1.000000000,2.000000000,5.500000000,5.000000000,1.000000000,2.000000000,3.000000000,,,,,,,,,,0.770513243,
1733870206.225511,0.809016994,1.000000000,2.000000000,5.500000000,5.000000000,1.000000000,2.000000000,3.000000000,,,,,,,,,,0.844327926,
1733870206.235763,0.760405966,1.000000000,2.000000000,5.500000000,5.000000000,1.000000000,2.000000000,3.000000000,,,,,,,,,,0.904827052,
1733870206.246005,0.707106781,1.000000000,2.000000000,5.500000000,5.000000000,1.000000000,2.000000000,3.000000000,,,,,,,,,,0.951056516,
1733870206.256285,0.649448048,1.000000000,2.000000000,5.500000000,5.000000000,1.000000000,2.000000000,3.000000000,,,,,,,,,,0.982287251,
1733870206.266547,0.587785252,1.000000000,2.000000000,5.500000000,5.000000000,1.000000000,2.000000000,3.000000000,,,,,,,,,,0.998026728,
1733870206.276817,0.522498565,1.000000000,2.000000000,5.500000000,5.000000000,1.000000000,2.000000000,3.000000000,,,,,,,,,,0.998026728,
1733870206.287087,0.453990500,1.000000000,2.000000000,5.500000000,5.000000000,1.000000000,2.000000000,3.000000000,,,,,,,,,,0.982287251,
1733870206.298025,0.382683432,1.000000000,2.000000000,5.500000000,5.000000000,1.000000000,2.000000000,3.000000000,,,,,,,,,,0.951056516,
1733870206.307539,0.309016994,1.000000000,2.000000000,5.500000000,5.000000000,1.000000000,2.000000000,3.000000000,,,,,,,,,,0.904827052,
1733870206.317805,0.233445364,1.000000000,2.000000000,5.500000000,5.000000000,1.000000000,2.000000000,3.000000000,,,,,,,,,,0.844327926,
1733870206.328062,0.156434465,1.000000000,2.000000000,5.500000000,5.000000000,1.000000000,2.000000000,3.000000000,,,,,,,,,,0.770513243,
1733870206.343106,0.078459096,1.000000000,2.000000000,5.500000000,5.000000000,1.000000000,2.000000000,3.000000000,,,,,,,,,,0.684547106,
1733870206.348569,0.000000000,1.000000000,2.000000000,5.500000000,5.000000000,1.000000000,2.000000000,3.000000000,,,,,,,,,,0.587785252,
1733870206.358849,-0.078459096,1.000000000,2.000000000,5.500000000,5.000000000,1.000000000,2.000000000,3.000000000,,,,,,,,,,0.481753674,
1733870206.369112,-0.156434465,1.000000000,2.000000000,5.500000000,5.000000000,1.000000000,2.000000000,3.000000000,,,,,,,,,,0.368124553,
1733870206.379389,-0.233445364,1.000000000,2.000000000,5.500000000,5.000000000,1.000000000,2.000000000,3.000000000,,,,,,,,,,0.248689887,
1733870206.389687,-0.309016994,1.000000000,2.000000000,5.500000000,5.000000000,1.000000000,2.000000000,3.000000000,,,,,,,,,,0.125333234,
1733870206.399899,-0.382683432,1.000000000,2.000000000,5.500000000,5.000000000,1.000000000,2.000000000,3.000000000,,,,,,,,,,0.000000000,
1733870206.410166,-0.453990500,1.000000000,2.000000000,5.500000000,5.000000000,1.000000000,2.000000000,3.000000000,,,,,,,,,,-0.125333234,
1733870206.420467,-0.522498565,1.000000000,2.000000000,5.500000000,5.000000000,1.000000000,2.000000000,3.000000000,,,,,,,,,,-0.248689887,
1733870206.430606,-0.587785252,1.000000000,2.000000000,5.500000000,5.000000000,1.000000000,2.000000000,3.000000000,,,,,,,,,,-0.368124553,
1733870206.446399,-0.649448048,1.000000000,2.000000000,5.500000000,5.000000000,1.000000000,2.000000000,3.000000000,,,,,,,,,,-0.481753674,
1733870206.450979,-0.707106781,1.000000000,2.000000000,5.500000000,5.000000000,1.000000000,2.000000000,3.000000000,,,,,,,,,,-0.587785252,
1733870206.461158,-0.760405966,1.000000000,2.000000000,5.500000000,5.000000000,1.000000000,2.000000000,3.000000000,,,,,,,,,,-0.684547106,
1733870206.471456,-0.809016994,1.000000000,2.000000000,5.500000000,5.000000000,1.000000000,2.000000000,3.000000000,,,,,,,,,,-0.770513243,
1733870206.481660,-0.852640164,1.000000000,2.000000000,5.500000000,5.000000000,1.000000000,2.000000000,3.000000000,,,,,,,,,,-0.844327926,
1733870206.491897,-0.891006524,1.000000000,2.000000000,5.500000000,5.000000000,1.000000000,2.000000000,3.000000000,,,,,,,,,,-0.904827052,
1733870206.502199,-0.923879533,1.000000000,2.000000000,5.500000000,5.000000000,1.000000000,2.000000000,3.000000000,,,,,,,,,,-0.951056516,
1733870206.512262,-0.951056516,1.000000000,2.000000000,5.500000000,5.000000000,1.000000000,2.000000000,3.000000000,,,,,,,,,,-0.982287251,
1733870206.522507,-0.972369920,1.000000000,2.000000000,5.500000000,5.000000000,1.000000000,2.000000000,3.000000000,,,,,,,,,,-0.998026728,
1733870206.532758,-0.987688341,1.000000000,2.000000000,5.500000000,5.000000000,1.000000000,2.000000000,3.000000000,,,,,,,,,,-0.998026728,
1733870206.543457,-0.996917334,1.000000000,2.000000000,5.500000000,5.000000000,1.000000000,2.000000000,3.000000000,,,,,,,,,,-0.982287251,
1733870206.553019,-1.000000000,1.000000000,2.000000000,5.500000000,5.000000000,1.000000000,2.000000000,3.000000000,,,,,,,,,,-0.951056516,
1733870206.563226,-0.996917334,1.000000000,2.000000000,5.500000000,5.000000000,1.000000000,2.000000000,3.000000000,,,,,,,,,,-0.904827052,
1733870206.573456,-0.987688341,1.000000000,2.000000000,5.500000000,5.000000000,1.000000000,2.000000000,3.000000000,,,,,,,,,,-0.844327926,
1733870206.583711,-0.972369920,1.000000000,2.000000000,5.500000000,5.000000000,1.000000000,2.000000000,3.000000000,,,,,,,,,,-0.770513243,
1733870206.593983,-0.951056516,1.000000000,2.000000000,5.500000000,5.000000000,1.000000000,2.000000000,3.000000000,,,,,,,,,,-0.684547106,
1733870206.604250,-0.923879533,1.000000000,2.000000000,5.500000000,5.000000000,1.000000000,2.000000000,3.000000000,,,,,,,,,,-0.587785252,
1733870206.614478,-0.891006524,1.000000000,2.000000000,5.500000000,5.000000000,1.000000000,2.000000000,3.000000000,,,,,,,,,,-0.481753674,
1733870206.624713,-0.852640164,1.000000000,2.000000000,5.500000000,5.000000000,1.000000000,2.000000000,3.000000000,,,,,,,,,,-0.368124553,
1733870206.634959,-0.809016994,1.000000000,2.000000000,5.500000000,5.000000000,1.000000000,2.000000000,3.000000000,,,,,,,,,,-0.248689887,
1733870206.645224,-0.760405966,1.000000000,2.000000000,5.500000000,5.000000000,1.000000000,2.000000000,3.000000000,,,,,,,,,,-0.125333234,
1733870206.655476,-0.707106781,1.000000000,2.000000000,5.500000000,5.000000000,1.000000000,2.000000000,3.000000000,,,,,,,,,,-0.000000000,
1733870206.665688,-0.649448048,1.000000000,2.000000000,5.500000000,5.000000000,1.000000000,2.000000000,3.000000000,,,,,,,,,,0.125333234,
1733870206.676035,-0.587785252,1.000000000,2.000000000,5.500000000,5.000000000,1.000000000,2.000000000,3.000000000,,,,,,,,,,0.248689887,
1733870206.686282,-0.522498565,1.000000000,2.000000000,5.500000000,5.000000000,1.000000000,2.000000000,3.000000000,,,,,,,,,,0.368124553,
1733870206.696514,-0.453990500,1.000000000,2.000000000,5.500000000,5.000000000,1.000000000,2.000000000,3.000000000,,,,,,,,,,0.481753674,
1733870206.707429,-0.382683432,1.000000000,2.000000000,5.500000000,5.000000000,1.000000000,2.000000000,3.000000000,,,,,,,,,,0.587785252,
1733870206.717068,-0.309016994,1.000000000,2.000000000,5.500000000,5.000000000,1.000000000,2.000000000,3.000000000,,,,,,,,,,0.684547106,
1733870206.727300,-0.233445364,1.000000000,2.000000000,5.500000000,5.000000000,1.000000000,2.000000000,3.000000000,,,,,,,,,,0.770513243,
1733870206.737500,-0.156434465,1.000000000,2.000000000,5.500000000,5.000000000,1.000000000,2.000000000,3.000000000,,,,,,,,,,0.844327926,
1733870206.747733,-0.078459096,1.000000000,2.000000000,5.500000000,5.000000000,1.000000000,2.000000000,3.000000000,,,,,,,,,,0.904827052,
1733870206.757967,-0.000000000,1.000000000,2.000000000,5.500000000,5.000000000,1.000000000,2.000000000,3.000000000,,,,,,,,,,0.951056516,
1733870206.768218,0.078459096,1.000000000,2.000000000,5.500000000,5.000000000,1.000000000,2.000000000,3.000000000,,,,,,,,,,0.982287251,
1733870206.778493,0.156434465,1.000000000,2.000000000,5.500000000,5.000000000,1.000000000,2.000000000,3.000000000,,,,,,,,,,0.998026728,
1733870206.788765,0.233445364,1.000000000,2.000000000,5.500000000,5.000000000,1.000000000,2.000000000,3.000000000,,,,,,,,,,0.998026728,
1733870206.799047,0.309016994,1.000000000,2.000000000,5.500000000,5.000000000,1.000000000,2.000000000,3.000000000,,,,,,,,,,0.982287251,
1733870206.809302,0.382683432,1.000000000,2.000000000,5.500000000,5.000000000,1.000000000,2.000000000,3.000000000,,,,,,,,,,0.951056516,
1733870206.819592,0.453990500,1.000000000,2.000000000,5.500000000,5.000000000,1.000000000,2.000000000,3.000000000,,,,,,,,,,0.904827052,
1733870206.829869,0.522498565,1.000000000,2.000000000,5.500000000,5.000000000,1.000000000,2.000000000,3.000000000,,,,,,,,,,0.844327926,
1733870206.844070,0.587785252,1.000000000,2.000000000,5.500000000,5.000000000,1.000000000,2.000000000,3.000000000,,,,,,,,,,0.770513243,
1733870206.850367,0.649448048,1.000000000,2.000000000,5.500000000,5.000000000,1.000000000,2.000000000,3.000000000,,,,,,,,,,0.684547106,
1733870206.860626,0.707106781,1.000000000,2.000000000,5.500000000,5.000000000,1.000000000,2.000000000,3.000000000,,,,,,,,,,0.587785252,
1733870206.870892,0.760405966,1.000000000,2.000000000,5.500000000,5.000000000,1.000000000,2.000000000,3.000000000,,,,,,,,,,0.481753674,
1733870206.881157,0.809016994,1.000000000,2.000000000,5.500000000,5.000000000,1.000000000,2.000000000,3.000000000,,,,,,,,,,0.368124553,
1733870206.891422,0.852640164,1.000000000,2.000000000,5.500000000,5.000000000,1.000000000,2.000000000,3.000000000,,,,,,,,,,0.248689887,
1733870206.901696,0.891006524,1.000000000,2.000000000,5.500000000,5.000000000,1.000000000,2.000000000,3.000000000,,,,,,,,,,0.125333234,
1733870206.911941,0.923879533,1.000000000,2.000000000,5.500000000,5.000000000,1.000000000,2.000000000,3.000000000,,,,,,,,,,0.000000000,
1733870206.922217,0.951056516,1.000000000,2.000000000,5.500000000,5.000000000,1.000000000,2.000000000,3.000000000,,,,,,,,,,-0.125333234,
1733870206.932498,0.972369920,1.000000000,2.000000000,5.500000000,5.000000000,1.000000000,2.000000000,3.000000000,,,,,,,,,,-0.248689887,
1733870206.944067,0.987688341,1.000000000,2.000000000,5.500000000,5.000000000,1.000000000,2.000000000,3.000000000,,,,,,,,,,-0.368124553,
1733870206.953160,0.996917334,1.000000000,2.000000000,5.500000000,5.000000000,1.000000000,2.000000000,3.000000000,,,,,,,,,,-0.481753674,
1733870206.963268,1.000000000,1.000000000,2.000000000,5.500000000,5.000000000,1.000000000,2.000000000,3.000000000,,,,,,,,,,-0.587785252,
1733870206.973510,0.996917334,1.000000000,2.000000000,5.500000000,5.000000000,1.000000000,2.000000000,3.000000000,,,,,,,,,,-0.684547106,
1733870206.983806,0.987688341,1.000000000,2.000000000,5.500000000,5.000000000,1.000000000,2.000000000,3.000000000,,,,,,,,,,-0.770513243,
1733870206.994063,0.972369920,1.000000000,2.000000000,5.500000000,5.000000000,1.000000000,2.000000000,3.000000000,,,,,,,,,,-0.844327926,
1733870207.004341,0.951056516,1.000000000,2.000000000,5.500000000,5.000000000,1.000000000,2.000000000,3.000000000,,,,,,,,,,-0.904827052,
1733870207.014595,0.923879533,1.000000000,2.000000000,5.500000000,5.000000000,1.000000000,2.000000000,3.000000000,,,,,,,,,,-0.951056516,
1733870207.024892,0.891006524,1.000000000,2.000000000,5.500000000,5.000000000,1.000000000,2.000000000,3.000000000,,,,,,,,,,-0.982287251,
1733870207.035152,0.852640164,1.000000000,2.000000000,5.500000000,5.000000000,1.000000000,2.000000000,3.000000000,,,,,,,,,,-0.998026728,
1733870207.045394,0.809016994,1.000000000,2.000000000,5.500000000,5.000000000,1.000000000,2.000000000,3.000000000,,,,,,,,,,-0.998026728,
1733870207.055675,0.760405966,1.000000000,2.000000000,5.500000000,5.000000000,1.000000000,2.000000000,3.000000000,,,,,,,,,,-0.982287251,
1733870207.065946,0.707106781,1.000000000,2.000000000,5.500000000,5.000000000,1.000000000,2.000000000,3.000000000,,,,,,,,,,-0.951056516,
1733870207.076210,0.649448048,1.000000000,2.000000000,5.500000000,5.000000000,1.000000000,2.000000000,3.000000000,,,,,,,,,,-0.904827052,
1733870207.086382,0.587785252,1.000000000,2.000000000,5.500000000,5.000000000,1.000000000,2.000000000,3.000000000,,,,,,,,,,-0.844327926,
1733870207.096629,0.522498565,1.000000000,2.000000000,5.500000000,5.000000000,1.000000000,2.000000000,3.000000000,,,,,,,,,,-0.770513243,
1733870207.107800,0.453990500,1.000000000,2.000000000,5.500000000,5.000000000,1.000000000,2.000000000,3.000000000,,,,,,,,,,-0.684547106,
1733870207.117149,0.382683432,1.000000000,2.000000000,5.500000000,5.000000000,1.000000000,2.000000000,3.000000000,,,,,,,,,,-0.587785252,
1733870207.127386,0.309016994,1.000000000,2.000000000,5.500000000,5.000000000,1.000000000,2.000000000,3.000000000,,,,,,,,,,-0.481753674,
1733870207.137513,0.233445364,1.000000000,2.000000000,5.500000000,5.000000000,1.000000000,2.000000000,3.000000000,,,,,,,,,,-0.368124553,
1733870207.147776,0.156434465,1.000000000,2.000000000,5.500000000,5.000000000,1.000000000,2.000000000,3.000000000,,,,,,,,,,-0.248689887,
1733870207.158003,0.078459096,1.000000000,2.000000000,5.500000000,5.000000000,1.000000000,2.000000000,3.000000000,,,,,,,,,,-0.125333234,
1733870207.168247,0.000000000,1.000000000,2.000000000,5.500000000,5.000000000,1.000000000,2.000000000,3.000000000,,,,,,,,,,-0.000000000,
1733870207.178496,-0.078459096,1.000000000,2.000000000,5.500000000,5.000000000,1.000000000,2.000000000,3.000000000,,,,,,,,,,0.125333234,
1733870207.188737,-0.156434465,1.000000000,2.000000000,5.500000000,5.000000000,1.000000000,2.000000000,3.000000000,,,,,,,,,,0.248689887,
1733870207.199003,-0.233445364,1.000000000,2.000000000,5.500000000,5.000000000,1.000000000,2.000000000,3.000000000,,,,,,,,,,0.368124553,
1733870207.209277,-0.309016994,1.000000000,2.000000000,5.500000000,5.000000000,1.000000000,2.000000000,3.000000000,,,,,,,,,,0.481753674,
1733870207.219534,-0.382683432,1.000000000,2.000000000,5.500000000,5.000000000,1.000000000,2.000000000,3.000000000,,,,,,,,,,0.587785252,
1733870207.229815,-0.453990500,1.000000000,2.000000000,5.500000000,5.000000000,1.000000000,2.000000000,3.000000000,,,,,,,,,,0.684547106,
1733870207.240103,-0.522498565,1.000000000,2.000000000,5.500000000,5.000000000,1.000000000,2.000000000,3.000000000,,,,,,,,,,0.770513243,
1733870207.250367,-0.587785252,1.000000000,2.000000000,5.500000000,5.000000000,1.000000000,2.000000000,3.000000000,,,,,,,,,,0.844327926,
1733870207.260634,-0.649448048,1.000000000,2.000000000,5.500000000,5.000000000,1.000000000,2.000000000,3.000000000,,,,,,,,,,0.904827052,
1733870207.270882,-0.707106781,1.000000000,2.000000000,5.500000000,5.000000000,1.000000000,2.000000000,3.000000000,,,,,,,,,,0.951056516,
1733870207.281188,-0.760405966,1.000000000,2.000000000,5.500000000,5.000000000,1.000000000,2.000000000,3.000000000,,,,,,,,,,0.982287251,
1733870207.291462,-0.809016994,1.000000000,2.000000000,5.500000000,5.000000000,1.000000000,2.000000000,3.000000000,,,,,,,,,,0.998026728,
1733870207.301735,-0.852640164,1.000000000,2.000000000,5.500000000,5.000000000,1.000000000,2.000000000,3.000000000,,,,,,,,,,0.998026728,
1733870207.311985,-0.891006524,1.000000000,2.000000000,5.500000000,5.000000000,1.000000000,2.000000000,3.000000000,,,,,,,,,,0.982287251,
1733870207.322266,-0.923879533,1.000000000,2.000000000,5.500000000,5.000000000,1.000000000,2.000000000,3.000000000,,,,,,,,,,0.951056516,
1733870207.332525,-0.951056516,1.000000000,2.000000000,5.500000000,5.000000000,1.000000000,2.000000000,3.000000000,,,,,,,,,,0.904827052,
1733870207.342796,-0.972369920,1.000000000,2.000000000,5.500000000,5.000000000,1.000000000,2.000000000,3.000000000,,,,,,,,,,0.844327926,
1733870207.353228,-0.987688341,1.000000000,2.000000000,5.500000000,5.000000000,1.000000000,2.000000000,3.000000000,,,,,,,,,,0.770513243,
1733870207.363423,-0.996917334,1.000000000,2.000000000,5.500000000,5.000000000,1.000000000,2.000000000,3.000000000,,,,,,,,,,0.684547106,
1733870207.373594,-1.000000000,1.000000000,2.000000000,5.500000000,5.000000000,1.000000000,2.000000000,3.000000000,,,,,,,,,,0.587785252,
1733870207.383828,-0.996917334,1.000000000,2.000000000,5.500000000,5.000000000,1.000000000,2.000000000,3.000000000,,,,,,,,,,0.481753674,
1733870207.394092,-0.987688341,1.000000000,2.000000000,5.500000000,5.000000000,1.000000000,2.000000000,3.000000000,,,,,,,,,,0.368124553,
1733870207.404226,-0.972369920,1.000000000,2.000000000,5.500000000,5.000000000,1.000000000,2.000000000,3.000000000,,,,,,,,,,0.248689887,
1733870207.414370,-0.951056516,1.000000000,2.000000000,5.500000000,5.000000000,1.000000000,2.000000000,3.000000000,,,,,,,,,,0.125333234,
1733870207.424515,-0.923879533,1.000000000,2.000000000,5.500000000,5.000000000,1.000000000,2.000000000,3.000000000,,,,,,,,,,0.000000000,
1733870207.440459,-0.891006524,1.000000000,2.000000000,5.500000000,5.000000000,1.000000000,2.000000000,3.000000000,,,,,,,,,,-0.125333234,
1733870207.444789,-0.852640164,1.000000000,2.000000000,5.500000000,5.000000000,1.000000000,2.000000000,3.000000000,,,,,,,,,,-0.248689887,
1733870207.455038,-0.809016994,1.000000000,2.000000000,5.500000000,5.000000000,1.000000000,2.000000000,3.000000000,,,,,,,,,,-0.368124553,
1733870207.465199,-0.760405966,1.000000000,2.000000000,5.500000000,5.000000000,1.000000000,2.000000000,3.000000000,,,,,,,,,,-0.481753674,
1733870207.475454,-0.707106781,1.000000000,2.000000000,5.500000000,5.000000000,1.000000000,2.000000000,3.000000000,,,,,,,,,,-0.587785252,
1733870207.485641,-0.649448048,1.000000000,2.000000000,5.500000000,5.000000000,1.000000000,2.000000000,3.000000000,,,,,,,,,,-0.684547106,
1733870207.495878,-0.587785252,1.000000000,2.000000000,5.500000000,5.000000000,1.000000000,2.000000000,3.000000000,,,,,,,,,,-0.770513243,
1733870207.507049,-0.522498565,1.000000000,2.000000000,5.500000000,5.000000000,1.000000000,2.000000000,3.000000000,,,,,,,,,,-0.844327926,
1733870207.516372,-0.453990500,1.000000000,2.000000000,5.500000000,5.000000000,1.000000000,2.000000000,3.000000000,,,,,,,,,,-0.904827052,
1733870207.526639,-0.382683432,1.000000000,2.000000000,5.500000000,5.000000000,1.000000000,2.000000000,3.000000000,,,,,,,,,,-0.951056516,
1733870207.540806,-0.309016994,1.000000000,2.000000000,5.500000000,5.000000000,1.000000000,2.000000000,3.000000000,,,,,,,,,,-0.982287251,
1733870207.547071,-0.233445364,1.000000000,2.000000000,5.500000000,5.000000000,1.000000000,2.000000000,3.000000000,,,,,,,,,,-0.998026728,
1733870207.557248,-0.156434465,1.000000000,2.000000000,5.500000000,5.000000000,1.000000000,2.000000000,3.000000000,,,,,,,,,,-0.998026728,
1733870207.567504,-0.078459096,1.000000000,2.000000000,5.500000000,5.000000000,1.000000000,2.000000000,3.000000000,,,,,,,,,,-0.982287251,
1733870207.577691,0.000000000,1.000000000,2.000000000,5.500000000,5.000000000,1.000000000,2.000000000,3.000000000,,,,,,,,,,-0.951056516,
1733870207.587928,0.078459096,1.000000000,2.000000000,5.500000000,5.000000000,1.000000000,2.000000000,3.000000000,,,,,,,,,,-0.904827052,
1733870207.598206,0.156434465,1.000000000,2.000000000,5.500000000,5.000000000,1.000000000,2.000000000,3.000000000,,,,,,,,,,-0.844327926,
1733870207.608370,0.233445364,1.000000000,2.000000000,5.500000000,5.000000000,1.000000000,2.000000000,3.000000000,,,,,,,,,,-0.770513243,
1733870207.618565,0.309016994,1.000000000,2.000000000,5.500000000,5.000000000,1.000000000,2.000000000,3.000000000,,,,,,,,,,-0.684547106,
1733870207.628860,0.382683432,1.000000000,2.000000000,5.500000000,5.000000000,1.000000000,2.000000000,3.000000000,,,,,,,,,,-0.587785252,
1733870207.649259,0.453990500,1.000000000,2.000000000,5.500000000,5.000000000,1.000000000,2.000000000,3.000000000,,,,,,,,,,-0.481753674,
1733870207.649336,0.522498565,1.000000000,2.000000000,5.500000000,5.000000000,1.000000000,2.000000000,3.000000000,,,,,,,,,,-0.368124553,
1733870207.659608,0.587785252,1.000000000,2.000000000,5.500000000,5.000000000,1.000000000,2.000000000,3.000000000,,,,,,,,,,-0.248689887,
1733870207.669872,0.649448048,1.000000000,2.000000000,5.500000000,5.000000000,1.000000000,2.000000000,3.000000000,,,,,,,,,,-0.125333234,
1733870207.680094,0.707106781,1.000000000,2.000000000,5.500000000,5.000000000,1.000000000,2.000000000,3.000000000,,,,,,,,,,-0.000000000,
1733870207.690355,0.760405966,1.000000000,2.000000000,5.500000000,5.000000000,1.000000000,2.000000000,3.000000000,,,,,,,,,,0.125333234,
1733870207.700621,0.809016994,1.000000000,2.000000000,5.500000000,5.000000000,1.000000000,2.000000000,3.000000000,,,,,,,,,,0.248689887,
1733870207.710777,0.852640164,1.000000000,2.000000000,5.500000000,5.000000000,1.000000000,2.000000000,3.000000000,,,,,,,,,,0.368124553,
1733870207.720930,0.891006524,1.000000000,2.000000000,5.500000000,5.000000000,1.000000000,2.000000000,3.000000000,,,,,,,,,,0.481753674,
1733870207.731073,0.923879533,1.000000000,2.000000000,5.500000000,5.000000000,1.000000000,2.000000000,3.000000000,,,,,,,,,,0.587785252,
1733870207.741123,0.951056516,1.000000000,2.000000000,5.500000000,5.000000000,1.000000000,2.000000000,3.000000000,,,,,,,,,,0.684547106,
1733870207.751310,0.972369920,1.000000000,2.000000000,5.500000000,5.000000000,1.000000000,2.000000000,3.000000000,,,,,,,,,,0.770513243,
1733870207.761454,0.987688341,1.000000000,2.000000000,5.500000000,5.000000000,1.000000000,2.000000000,3.000000000,,,,,,,,,,0.844327926,
1733870207.771627,0.996917334,1.000000000,2.000000000,5.500000000,5.000000000,1.000000000,2.000000000,3.000000000,,,,,,,,,,0.904827052,
1733870207.781910,1.000000000,1.000000000,2.000000000,5.500000000,5.000000000,1.000000000,2.000000000,3.000000000,,,,,,,,,,0.951056516,
1733870207.792124,0.996917334,1.000000000,2.000000000,5.500000000,5.000000000,1.000000000,2.000000000,3.000000000,,,,,,,,,,0.982287251,
1733870207.802374,0.987688341,1.000000000,2.000000000,5.500000000,5.000000000,1.000000000,2.000000000,3.000000000,,,,,,,,,,0.998026728,
1733870207.812558,0.972369920,1.000000000,2.000000000,5.500000000,5.000000000,1.000000000,2.000000000,3.000000000,,,,,,,,,,0.998026728,
1733870207.822858,0.951056516,1.000000000,2.000000000,5.500000000,5.000000000,1.000000000,2.000000000,3.000000000,,,,,,,,,,0.982287251,
1733870207.834371,0.923879533,1.000000000,2.000000000,5.500000000,5.000000000,1.000000000,2.000000000,3.000000000,,,,,,,,,,0.951056516,
1733870207.843428,0.891006524,1.000000000,2.000000000,5.500000000,5.000000000,1.000000000,2.000000000,3.000000000,,,,,,,,,,0.904827052,
1733870207.853740,0.852640164,1.000000000,2.000000000,5.500000000,5.000000000,1.000000000,2.000000000,3.000000000,,,,,,,,,,0.844327926,
1733870207.863976,0.809016994,1.000000000,2.000000000,5.500000000,5.000000000,1.000000000,2.000000000,3.000000000,,,,,,,,,,0.770513243,
1733870207.874261,0.760405966,1.000000000,2.000000000,5.500000000,5.000000000,1.000000000,2.000000000,3.000000000,,,,,,,,,,0.684547106,
1733870207.884525,0.707106781,1.000000000,2.000000000,5.500000000,5.000000000,1.000000000,2.000000000,3.000000000,,,,,,,,,,0.587785252,
1733870207.894704,0.649448048,1.000000000,2.000000000,5.500000000,5.000000000,1.000000000,2.000000000,3.000000000,,,,,,,,,,0.481753674,
1733870207.904952,0.587785252,1.000000000,2.000000000,5.500000000,5.000000000,1.000000000,2.000000000,3.000000000,,,,,,,,,,0.368124553,
1733870207.920253,0.522498565,1.000000000,2.000000000,5.500000000,5.000000000,1.000000000,2.000000000,3.000000000,,,,,,,,,,0.248689887,
1733870207.925417,0.453990500,1.000000000,2.000000000,5.500000000,5.000000000,1.000000000,2.000000000,3.000000000,,,,,,,,,,0.125333234,
1733870207.935745,0.382683432,1.000000000,2.000000000,5.500000000,5.000000000,1.000000000,2.000000000,3.000000000,,,,,,,,,,0.000000000,
1733870207.946020,0.309016994,1.000000000,2.000000000,5.500000000,5.000000000,1.000000000,2.000000000,3.000000000,,,,,,,,,,-0.125333234,
1733870207.956298,0.233445364,1.000000000,2.000000000,5.500000000,5.000000000,1.000000000,2.000000000,3.000000000,,,,,,,,,,-0.248689887,
1733870207.966564,0.156434465,1.000000000,2.000000000,5.500000000,5.000000000,1.000000000,2.000000000,3.000000000,,,,,,,,,,-0.368124553,
1733870207.976881,0.078459096,1.000000000,2.000000000,5.500000000,5.000000000,1.000000000,2.000000000,3.000000000,,,,,,,,,,-0.481753674,
1733870207.987122,0.000000000,1.000000000,2.000000000,5.500000000,5.000000000,1.000000000,2.000000000,3.000000000,,,,,,,,,,-0.587785252,
1733870207.997350,-0.078459096,1.000000000,2.000000000,5.500000000,5.000000000,1.000000000,2.000000000,3.000000000,,,,,,,,,,-0.684547106,
1733870208.007642,-0.156434465,1.000000000,2.000000000,5.500000000,5.000000000,1.000000000,2.000000000,3.000000000,,,,,,,,,,-0.770513243,
1733870208.017891,-0.233445364,1.000000000,2.000000000,5.500000000,5.000000000,1.000000000,2.000000000,3.000000000,,,,,,,,,,-0.844327926,
1733870208.031029,-0.309016994,1.000000000,2.000000000,5.500000000,5.000000000,1.000000000,2.000000000,3.000000000,,,,,,,,,,-0.904827052,
1733870208.038408,-0.382683432,1.000000000,2.000000000,5.500000000,5.000000000,1.000000000,2.000000000,3.000000000,,,,,,,,,,-0.951056516,
1733870208.049549,-0.453990500,1.000000000,2.000000000,5.500000000,5.000000000,1.000000000,2.000000000,3.000000000,,,,,,,,,,-0.982287251,
1733870208.058902,-0.522498565,1.000000000,2.000000000,5.500000000,5.000000000,1.000000000,2.000000000,3.000000000,,,,,,,,,,-0.998026728,
1733870208.069162,-0.587785252,1.000000000,2.000000000,5.500000000,5.000000000,1.000000000,2.000000000,3.000000000,,,,,,,,,,-0.998026728,
1733870208.079380,-0.649448048,1.000000000,2.000000000,5.500000000,5.000000000,1.000000000,2.000000000,3.000000000,,,,,,,,,,-0.982287251,
1733870208.089622,-0.707106781,1.000000000,2.000000000,5.500000000,5.000000000,1.000000000,2.000000000,3.000000000,,,,,,,,,,-0.951056516,
1733870208.099829,-0.760405966,1.000000000,2.000000000,5.500000000,5.000000000,1.000000000,2.000000000,3.000000000,,,,,,,,,,-0.904827052,
1733870208.109971,-0.809016994,1.000000000,2.000000000,5.500000000,5.000000000,1.000000000,2.000000000,3.000000000,,,,,,,,,,-0.844327926,
1733870208.120161,-0.852640164,1.000000000,2.000000000,5.500000000,5.000000000,1.000000000,2.000000000,3.000000000,,,,,,,,,,-0.770513243,
1733870208.131717,-0.891006524,1.000000000,2.000000000,5.500000000,5.000000000,1.000000000,2.000000000,3.000000000,,,,,,,,,,-0.684547106,
1733870208.140454,-0.923879533,1.000000000,2.000000000,5.500000000,5.000000000,1.000000000,2.000000000,3.000000000,,,,,,,,,,-0.587785252,
1733870208.150543,-0.951056516,1.000000000,2.000000000,5.500000000,5.000000000,1.000000000,2.000000000,3.000000000,,,,,,,,,,-0.481753674,
1733870208.160681,-0.972369920,1.000000000,2.000000000,5.500000000,5.000000000,1.000000000,2.000000000,3.000000000,,,,,,,,,,-0.368124553,
1733870208.170774,-0.987688341,1.000000000,2.000000000,5.500000000,5.000000000,1.000000000,2.000000000,3.000000000,,,,,,,,,,-0.248689887,
1733870208.180995,-0.996917334,1.000000000,2.000000000,5.500000000,5.000000000,1.000000000,2.000000000,3.000000000,,,,,,,,,,-0.125333234,
1733870208.191227,-1.000000000,1.000000000,2.000000000,5.500000000,5.000000000,1.000000000,2.000000000,3.000000000,,,,,,,,,,-0.000000000,
1733870208.201365,-0.996917334,1.000000000,2.000000000,5.500000000,5.000000000,1.000000000,2.000000000,3.000000000,,,,,,,,,,0.125333234,
1733870208.211414,-0.987688341,1.000000000,2.000000000,5.500000000,5.000000000,1.000000000,2.000000000,3.000000000,,,,,,,,,,0.248689887,
1733870208.221496,-0.972369920,1.000000000,2.000000000,5.500000000,5.000000000,1.000000000,2.000000000,3.000000000,,,,,,,,,,0.368124553,
1733870208.232276,-0.951056516,1.000000000,2.000000000,5.500000000,5.000000000,1.000000000,2.000000000,3.000000000,,,,,,,,,,0.481753674,
1733870208.242051,-0.923879533,1.000000000,2.000000000,5.500000000,5.000000000,1.000000000,2.000000000,3.000000000,,,,,,,,,,0.587785252,
1733870208.252292,-0.891006524,1.000000000,2.000000000,5.500000000,5.000000000,1.000000000,2.000000000,3.000000000,,,,,,,,,,0.684547106,
1733870208.262471,-0.852640164,1.000000000,2.000000000,5.500000000,5.000000000,1.000000000,2.000000000,3.000000000,,,,,,,,,,0.770513243,
1733870208.272582,-0.809016994,1.000000000,2.000000000,5.500000000,5.000000000,1.000000000,2.000000000,3.000000000,,,,,,,,,,0.844327926,
1733870208.282667,-0.760405966,1.000000000,2.000000000,5.500000000,5.000000000,1.000000000,2.000000000,3.000000000,,,,,,,,,,0.904827052,
1733870208.292915,-0.707106781,1.000000000,2.000000000,5.500000000,5.000000000,1.000000000,2.000000000,3.000000000,,,,,,,,,,0.951056516,
1733870208.303076,-0.649448048,1.000000000,2.000000000,5.500000000,5.000000000,1.000000000,2.000000000,3.000000000,,,,,,,,,,0.982287251,
1733870208.313324,-0.587785252,1.000000000,2.000000000,5.500000000,5.000000000,1.000000000,2.000000000,3.000000000,,,,,,,,,,0.998026728,
1733870208.323592,-0.522498565,1.000000000,2.000000000,5.500000000,5.000000000,1.000000000,2.000000000,3.000000000,,,,,,,,,,0.998026728,
1733870208.333868,-0.453990500,1.000000000,2.000000000,5.500000000,5.000000000,1.000000000,2.000000000,3.000000000,,,,,,,,,,0.982287251,
1733870208.344116,-0.382683432,1.000000000,2.000000000,5.500000000,5.000000000,1.000000000,2.000000000,3.000000000,,,,,,,,,,0.951056516,
1733870208.354373,-0.309016994,1.000000000,2.000000000,5.500000000,5.000000000,1.000000000,2.000000000,3.000000000,,,,,,,,,,0.904827052,
1733870208.364666,-0.233445364,1.000000000,2.000000000,5.500000000,5.000000000,1.000000000,2.000000000,3.000000000,,,,,,,,,,0.844327926,
1733870208.374943,-0.156434465,1.000000000,2.000000000,5.500000000,5.000000000,1.000000000,2.000000000,3.000000000,,,,,,,,,,0.770513243,
1733870208.385086,-0.078459096,1.000000000,2.000000000,5.500000000,5.000000000,1.000000000,2.000000000,3.000000000,,,,,,,,,,0.684547106,
1733870208.395177,0.000000000,1.000000000,2.000000000,5.500000000,5.000000000,1.000000000,2.000000000,3.000000000,,,,,,,,,,0.587785252,
1733870208.405269,0.078459096,1.000000000,2.000000000,5.500000000,5.000000000,1.000000000,2.000000000,3.000000000,,,,,,,,,,0.481753674,
1733870208.415357,0.156434465,1.000000000,2.000000000,5.500000000,5.000000000,1.000000000,2.000000000,3.000000000,,,,,,,,,,0.368124553,
1733870208.425618,0.233445364,1.000000000,2.000000000,5.500000000,5.000000000,1.000000000,2.000000000,3.000000000,,,,,,,,,,0.248689887,
1733870208.449927,0.309016994,1.000000000,2.000000000,5.500000000,5.000000000,1.000000000,2.000000000,3.000000000,,,,,,,,,,0.125333234,
1733870208.449999,0.382683432,1.000000000,2.000000000,5.500000000,5.000000000,1.000000000,2.000000000,3.000000000,,,,,,,,,,0.000000000,
1733870208.456364,0.453990500,1.000000000,2.000000000,5.500000000,5.000000000,1.000000000,2.000000000,3.000000000,,,,,,,,,,-0.125333234,
1733870208.466449,0.522498565,1.000000000,2.000000000,5.500000000,5.000000000,1.000000000,2.000000000,3.000000000,,,,,,,,,,-0.248689887,
1733870208.476559,0.587785252,1.000000000,2.000000000,5.500000000,5.000000000,1.000000000,2.000000000,3.000000000,,,,,,,,,,-0.368124553,
1733870208.486730,0.649448048,1.000000000,2.000000000,5.500000000,5.000000000,1.000000000,2.000000000,3.000000000,,,,,,,,,,-0.481753674,
1733870208.497024,0.707106781,1.000000000,2.000000000,5.500000000,5.000000000,1.000000000,2.000000000,3.000000000,,,,,,,,,,-0.587785252,
1733870208.507309,0.760405966,1.000000000,2.000000000,5.500000000,5.000000000,1.000000000,2.000000000,3.000000000,,,,,,,,,,-0.684547106,
1733870208.517495,0.809016994,1.000000000,2.000000000,5.500000000,5.000000000,1.000000000,2.000000000,3.000000000,,,,,,,,,,-0.770513243,
1733870208.532044,0.852640164,1.000000000,2.000000000,5.500000000,5.000000000,1.000000000,2.000000000,3.000000000,,,,,,,,,,-0.844327926,
1733870208.537698,0.891006524,1.000000000,2.000000000,5.500000000,5.000000000,1.000000000,2.000000000,3.000000000,,,,,,,,,,-0.904827052,
1733870208.547946,0.923879533,1.000000000,2.000000000,5.500000000,5.000000000,1.000000000,2.000000000,3.000000000,,,,,,,,,,-0.951056516,
1733870208.558203,0.951056516,1.000000000,2.000000000,5.500000000,5.000000000,1.000000000,2.000000000,3.000000000,,,,,,,,,,-0.982287251,
1733870208.568439,0.972369920,1.000000000,2.000000000,5.500000000,5.000000000,1.000000000,2.000000000,3.000000000,,,,,,,,,,-0.998026728,
1733870208.578676,0.987688341,1.000000000,2.000000000,5.500000000,5.000000000,1.000000000,2.000000000,3.000000000,,,,,,,,,,-0.998026728,
1733870208.588937,0.996917334,1.000000000,2.000000000,5.500000000,5.000000000,1.000000000,2.000000000,3.000000000,,,,,,,,,,-0.982287251,
1733870208.603986,1.000000000,1.000000000,2.000000000,5.500000000,5.000000000,1.000000000,2.000000000,3.000000000,,,,,,,,,,-0.951056516,
1733870208.609311,0.996917334,1.000000000,2.000000000,5.500000000,5.000000000,1.000000000,2.000000000,3.000000000,,,,,,,,,,-0.904827052,
1733870208.619621,0.987688341,1.000000000,2.000000000,5.500000000,5.000000000,1.000000000,2.000000000,3.000000000,,,,,,,,,,-0.844327926,
1733870208.633257,0.972369920,1.000000000,2.000000000,5.500000000,5.000000000,1.000000000,2.000000000,3.000000000,,,,,,,,,,-0.770513243,
1733870208.640142,0.951056516,1.000000000,2.000000000,5.500000000,5.000000000,1.000000000,2.000000000,3.000000000,,,,,,,,,,-0.684547106,
1733870208.650313,0.923879533,1.000000000,2.000000000,5.500000000,5.000000000,1.000000000,2.000000000,3.000000000,,,,,,,,,,-0.587785252,
1733870208.660507,0.891006524,1.000000000,2.000000000,5.500000000,5.000000000,1.000000000,2.000000000,3.000000000,,,,,,,,,,-0.481753674,
1733870208.670761,0.852640164,1.000000000,2.000000000,5.500000000,5.000000000,1.000000000,2.000000000,3.000000000,,,,,,,,,,-0.368124553,
1733870208.680990,0.809016994,1.000000000,2.000000000,5.500000000,5.000000000,1.000000000,2.000000000,3.000000000,,,,,,,,,,-0.248689887,
1733870208.691229,0.760405966,1.000000000,2.000000000,5.500000000,5.000000000,1.000000000,2.000000000,3.000000000,,,,,,,,,,-0.125333234,
1733870208.701569,0.707106781,1.000000000,2.000000000,5.500000000,5.000000000,1.000000000,2.000000000,3.000000000,,,,,,,,,,-0.000000000,
1733870208.711849,0.649448048,1.000000000,2.000000000,5.500000000,5.000000000,1.000000000,2.000000000,3.000000000,,,,,,,,,,0.125333234,
1733870208.722093,0.587785252,1.000000000,2.000000000,5.500000000,5.000000000,1.000000000,2.000000000,3.000000000,,,,,,,,,,0.248689887,
1733870208.737116,0.522498565,1.000000000,2.000000000,5.500000000,5.000000000,1.000000000,2.000000000,3.000000000,,,,,,,,,,0.368124553,
1733870208.742571,0.453990500,1.000000000,2.000000000,5.500000000,5.000000000,1.000000000,2.000000000,3.000000000,,,,,,,,,,0.481753674,
1733870208.752873,0.382683432,1.000000000,2.000000000,5.500000000,5.000000000,1.000000000,2.000000000,3.000000000,,,,,,,,,,0.587785252,
1733870208.763121,0.309016994,1.000000000,2.000000000,5.500000000,5.000000000,1.000000000,2.000000000,3.000000000,,,,,,,,,,0.684547106,
1733870208.773293,0.233445364,1.000000000,2.000000000,5.500000000,5.000000000,1.000000000,2.000000000,3.000000000,,,,,,,,,,0.770513243,
1733870208.783491,0.156434465,1.000000000,2.000000000,5.500000000,5.000000000,1.000000000,2.000000000,3.000000000,,,,,,,,,,0.844327926,
1733870208.793670,0.078459096,1.000000000,2.000000000,5.500000000,5.000000000,1.000000000,2.000000000,3.000000000,,,,,,,,,,0.904827052,
1733870208.803917,-0.000000000,1.000000000,2.000000000,5.500000000,5.000000000,1.000000000,2.000000000,3.000000000,,,,,,,,,,0.951056516,
1733870208.814303,-0.078459096,1.000000000,2.000000000,5.500000000,5.000000000,1.000000000,2.000000000,3.000000000,,,,,,,,,,0.982287251,
1733870208.824662,-0.156434465,1.000000000,2.000000000,5.500000000,5.000000000,1.000000000,2.000000000,3.000000000,,,,,,,,,,0.998026728,
1733870208.834922,-0.233445364,1.000000000,2.000000000,5.500000000,5.000000000,1.000000000,2.000000000,3.000000000,,,,,,,,,,0.998026728,
1733870208.853847,-0.309016994,1.000000000,2.000000000,5.500000000,5.000000000,1.000000000,2.000000000,3.000000000,,,,,,,,,,0.982287251,
1733870208.855307,-0.382683432,1.000000000,2.000000000,5.500000000,5.000000000,1.000000000,2.000000000,3.000000000,,,,,,,,,,0.951056516,
1733870208.865563,-0.453990500,1.000000000,2.000000000,5.500000000,5.000000000,1.000000000,2.000000000,3.000000000,,,,,,,,,,0.904827052,
1733870208.875808,-0.522498565,1.000000000,2.000000000,5.500000000,5.000000000,1.000000000,2.000000000,3.000000000,,,,,,,,,,0.844327926,
1733870208.886131,-0.587785252,1.000000000,2.000000000,5.500000000,5.000000000,1.000000000,2.000000000,3.000000000,,,,,,,,,,0.770513243,
1733870208.896390,-0.649448048,1.000000000,2.000000000,5.500000000,5.000000000,1.000000000,2.000000000,3.000000000,,,,,,,,,,0.684547106,
1733870208.906660,-0.707106781,1.000000000,2.000000000,5.500000000,5.000000000,1.000000000,2.000000000,3.000000000,,,,,,,,,,0.587785252,
1733870208.916943,-0.760405966,1.000000000,2.000000000,5.500000000,5.000000000,1.000000000,2.000000000,3.000000000,,,,,,,,,,0.481753674,
1733870208.931992,-0.809016994,1.000000000,2.000000000,5.500000000,5.000000000,1.000000000,2.000000000,3.000000000,,,,,,,,,,0.368124553,
1733870208.937475,-0.852640164,1.000000000,2.000000000,5.500000000,5.000000000,1.000000000,2.000000000,3.000000000,,,,,,,,,,0.248689887,
1733870208.947875,-0.891006524,1.000000000,2.000000000,5.500000000,5.000000000,1.000000000,2.000000000,3.000000000,,,,,,,,,,0.125333234,
1733870208.957923,-0.923879533,1.000000000,2.000000000,5.500000000,5.000000000,1.000000000,2.000000000,3.000000000,,,,,,,,,,0.000000000,
1733870208.967989,-0.951056516,1.000000000,2.000000000,5.500000000,5.000000000,1.000000000,2.000000000,3.000000000,,,,,,,,,,-0.125333234,
1733870208.978071,-0.972369920,1.000000000,2.000000000,5.500000000,5.000000000,1.000000000,2.000000000,3.000000000,,,,,,,,,,-0.248689887,
1733870208.988431,-0.987688341,1.000000000,2.000000000,5.500000000,5.000000000,1.000000000,2.000000000,3.000000000,,,,,,,,,,-0.368124553,
1733870208.998698,-0.996917334,1.000000000,2.000000000,5.500000000,5.000000000,1.000000000,2.000000000,3.000000000,,,,,,,,,,-0.481753674,
1733870209.008993,-1.000000000,1.000000000,2.000000000,5.500000000,5.000000000,1.000000000,2.000000000,3.000000000,,,,,,,,,,-0.587785252,
1733870209.019247,-0.996917334,1.000000000,2.000000000,5.500000000,5.000000000,1.000000000,2.000000000,3.000000000,,,,,,,,,,-0.684547106,
1733870209.032130,-0.987688341,1.000000000,2.000000000,5.500000000,5.000000000,1.000000000,2.000000000,3.000000000,,,,,,,,,,-0.770513243,
1733870209.039757,-0.972369920,1.000000000,2.000000000,5.500000000,5.000000000,1.000000000,2.000000000,3.000000000,,,,,,,,,,-0.844327926,
1733870209.050012,-0.951056516,1.000000000,2.000000000,5.500000000,5.000000000,1.000000000,2.000000000,3.000000000,,,,,,,,,,-0.904827052,
1733870209.060281,-0.923879533,1.000000000,2.000000000,5.500000000,5.000000000,1.000000000,2.000000000,3.000000000,,,,,,,,,,-0.951056516,
1733870209.070560,-0.891006524,1.000000000,2.000000000,5.500000000,5.000000000,1.000000000,2.000000000,3.000000000,,,,,,,,,,-0.982287251,
1733870209.080735,-0.852640164,1.000000000,2.000000000,5.500000000,5.000000000,1.000000000,2.000000000,3.000000000,,,,,,,,,,-0.998026728,
1733870209.090936,-0.809016994,1.000000000,2.000000000,5.500000000,5.000000000,1.000000000,2.000000000,3.000000000,,,,,,,,,,-0.998026728,
1733870209.100984,-0.760405966,1.000000000,2.000000000,5.500000000,5.000000000,1.000000000,2.000000000,3.000000000,,,,,,,,,,-0.982287251,
1733870209.111108,-0.707106781,1.000000000,2.000000000,5.500000000,5.000000000,1.000000000,2.000000000,3.000000000,,,,,,,,,,-0.951056516,
1733870209.121341,-0.649448048,1.000000000,2.000000000,5.500000000,5.000000000,1.000000000,2.000000000,3.000000000,,,,,,,,,,-0.904827052,
1733870209.132217,-0.587785252,1.000000000,2.000000000,5.500000000,5.000000000,1.000000000,2.000000000,3.000000000,,,,,,,,,,-0.844327926,
1733870209.141772,-0.522498565,1.000000000,2.000000000,5.500000000,5.000000000,1.000000000,2.000000000,3.000000000,,,,,,,,,,-0.770513243,
1733870209.152013,-0.453990500,1.000000000,2.000000000,5.500000000,5.000000000,1.000000000,2.000000000,3.000000000,,,,,,,,,,-0.684547106,
1733870209.162253,-0.382683432,1.000000000,2.000000000,5.500000000,5.000000000,1.000000000,2.000000000,3.000000000,,,,,,,,,,-0.587785252,
1733870209.172453,-0.309016994,1.000000000,2.000000000,5.500000000,5.000000000,1.000000000,2.000000000,3.000000000,,,,,,,,,,-0.481753674,
1733870209.182685,-0.233445364,1.000000000,2.000000000,5.500000000,5.000000000,1.000000000,2.000000000,3.000000000,,,,,,,,,,-0.368124553,
1733870209.192928,-0.156434465,1.000000000,2.000000000,5.500000000,5.000000000,1.000000000,2.000000000,3.000000000,,,,,,,,,,-0.248689887,
1733870209.203195,-0.078459096,1.000000000,2.000000000,5.500000000,5.000000000,1.000000000,2.000000000,3.000000000,,,,,,,,,,-0.125333234,
1733870209.213368,-0.000000000,1.000000000,2.000000000,5.500000000,5.000000000,1.000000000,2.000000000,3.000000000,,,,,,,,,,-0.000000000,
1733870209.223610,0.078459096,1.000000000,2.000000000,5.500000000,5.000000000,1.000000000,2.000000000,3.000000000,,,,,,,,,,0.125333234,
1733870209.237543,0.156434465,1.000000000,2.000000000,5.500000000,5.000000000,1.000000000,2.000000000,3.000000000,,,,,,,,,,0.248689887,
1733870209.243909,0.233445364,1.000000000,2.000000000,5.500000000,5.000000000,1.000000000,2.000000000,3.000000000,,,,,,,,,,0.368124553,
1733870209.254073,0.309016994,1.000000000,2.000000000,5.500000000,5.000000000,1.000000000,2.000000000,3.000000000,,,,,,,,,,0.481753674,
1733870209.264306,0.382683432,1.000000000,2.000000000,5.500000000,5.000000000,1.000000000,2.000000000,3.000000000,,,,,,,,,,0.587785252,
1733870209.274541,0.453990500,1.000000000,2.000000000,5.500000000,5.000000000,1.000000000,2.000000000,3.000000000,,,,,,,,,,0.684547106,
1733870209.284786,0.522498565,1.000000000,2.000000000,5.500000000,5.000000000,1.000000000,2.000000000,3.000000000,,,,,,,,,,0.770513243,
1733870209.295024,0.587785252,1.000000000,2.000000000,5.500000000,5.000000000,1.000000000,2.000000000,3.000000000,,,,,,,,,,0.844327926,
1733870209.305204,0.649448048,1.000000000,2.000000000,5.500000000,5.000000000,1.000000000,2.000000000,3.000000000,,,,,,,,,,0.904827052,
1733870209.315446,0.707106781,1.000000000,2.000000000,5.500000000,5.000000000,1.000000000,2.000000000,3.000000000,,,,,,,,,,0.951056516,
1733870209.325622,0.760405966,1.000000000,2.000000000,5.500000000,5.000000000,1.000000000,2.000000000,3.000000000,,,,,,,,,,0.982287251,
1733870209.354531,0.809016994,1.000000000,2.000000000,5.500000000,5.000000000,1.000000000,2.000000000,3.000000000,,,,,,,,,,0.998026728,
1733870209.354609,0.852640164,1.000000000,2.000000000,5.500000000,5.000000000,1.000000000,2.000000000,3.000000000,,,,,,,,,,0.998026728,
1733870209.356588,0.891006524,1.000000000,2.000000000,5.500000000,5.000000000,1.000000000,2.000000000,3.000000000,,,,,,,,,,0.982287251,
1733870209.366929,0.923879533,1.000000000,2.000000000,5.500000000,5.000000000,1.000000000,2.000000000,3.000000000,,,,,,,,,,0.951056516,
1733870209.377264,0.951056516,1.000000000,2.000000000,5.500000000,5.000000000,1.000000000,2.000000000,3.000000000,,,,,,,,,,0.904827052,
1733870209.387600,0.972369920,1.000000000,2.000000000,5.500000000,5.000000000,1.000000000,2.000000000,3.000000000,,,,,,,,,,0.844327926,
1733870209.397899,0.987688341,1.000000000,2.000000000,5.500000000,5.000000000,1.000000000,2.000000000,3.000000000,,,,,,,,,,0.770513243,
1733870209.408249,0.996917334,1.000000000,2.000000000,5.500000000,5.000000000,1.000000000,2.000000000,3.000000000,,,,,,,,,,0.684547106,
1733870209.418577,1.000000000,1.000000000,2.000000000,5.500000000,5.000000000,1.000000000,2.000000000,3.000000000,,,,,,,,,,0.587785252,
1733870209.432301,0.996917334,1.000000000,2.000000000,5.500000000,5.000000000,1.000000000,2.000000000,3.000000000,,,,,,,,,,0.481753674,
1733870209.439218,0.987688341,1.000000000,2.000000000,5.500000000,5.000000000,1.000000000,2.000000000,3.000000000,,,,,,,,,,0.368124553,
1733870209.449556,0.972369920,1.000000000,2.000000000,5.500000000,5.000000000,1.000000000,2.000000000,3.000000000,,,,,,,,,,0.248689887,
1733870209.459903,0.951056516,1.000000000,2.000000000,5.500000000,5.000000000,1.000000000,2.000000000,3.000000000,,,,,,,,,,0.125333234,
1733870209.470205,0.923879533,1.000000000,2.000000000,5.500000000,5.000000000,1.000000000,2.000000000,3.000000000,,,,,,,,,,-0.000000000,
1733870209.480551,0.891006524,1.000000000,2.000000000,5.500000000,5.000000000,1.000000000,2.000000000,3.000000000,,,,,,,,,,-0.125333234,
1733870209.490890,0.852640164,1.000000000,2.000000000,5.500000000,5.000000000,1.000000000,2.000000000,3.000000000,,,,,,,,,,-0.248689887,
1733870209.501227,0.809016994,1.000000000,2.000000000,5.500000000,5.000000000,1.000000000,2.000000000,3.000000000,,,,,,,,,,-0.368124553,
1733870209.511571,0.760405966,1.000000000,2.000000000,5.500000000,5.000000000,1.000000000,2.000000000,3.000000000,,,,,,,,,,-0.481753674,
1733870209.521896,0.707106781,1.000000000,2.000000000,5.500000000,5.000000000,1.000000000,2.000000000,3.000000000,,,,,,,,,,-0.587785252,
1733870209.532255,0.649448048,1.000000000,2.000000000,5.500000000,5.000000000,1.000000000,2.000000000,3.000000000,,,,,,,,,,-0.684547106,
1733870209.542587,0.587785252,1.000000000,2.000000000,5.500000000,5.000000000,1.000000000,2.000000000,3.000000000,,,,,,,,,,-0.770513243,
1733870209.552940,0.522498565,1.000000000,2.000000000,5.500000000,5.000000000,1.000000000,2.000000000,3.000000000,,,,,,,,,,-0.844327926,
1733870209.563274,0.453990500,1.000000000,2.000000000,5.500000000,5.000000000,1.000000000,2.000000000,3.000000000,,,,,,,,,,-0.904827052,
1733870209.573548,0.382683432,1.000000000,2.000000000,5.500000000,5.000000000,1.000000000,2.000000000,3.000000000,,,,,,,,,,-0.951056516,
1733870209.583889,0.309016994,1.000000000,2.000000000,5.500000000,5.000000000,1.000000000,2.000000000,3.000000000,,,,,,,,,,-0.982287251,
1733870209.594215,0.233445364,1.000000000,2.000000000,5.500000000,5.000000000,1.000000000,2.000000000,3.000000000,,,,,,,,,,-0.998026728,
1733870209.604636,0.156434465,1.000000000,2.000000000,5.500000000,5.000000000,1.000000000,2.000000000,3.000000000,,,,,,,,,,-0.998026728,
1733870209.614920,0.078459096,1.000000000,2.000000000,5.500000000,5.000000000,1.000000000,2.000000000,3.000000000,,,,,,,,,,-0.982287251,
1733870209.625143,0.000000000,1.000000000,2.000000000,5.500000000,5.000000000,1.000000000,2.000000000,3.000000000,,,,,,,,,,-0.951056516,
1733870209.635387,-0.078459096,1.000000000,2.000000000,5.500000000,5.000000000,1.000000000,2.000000000,3.000000000,,,,,,,,,,-0.904827052,
1733870209.655841,-0.156434465,1.000000000,2.000000000,5.500000000,5.000000000,1.000000000,2.000000000,3.000000000,,,,,,,,,,-0.844327926,
1733870209.655918,-0.233445364,1.000000000,2.000000000,5.500000000,5.000000000,1.000000000,2.000000000,3.000000000,,,,,,,,,,-0.770513243,
1733870209.666069,-0.309016994,1.000000000,2.000000000,5.500000000,5.000000000,1.000000000,2.000000000,3.000000000,,,,,,,,,,-0.684547106,
1733870209.676237,-0.382683432,1.000000000,2.000000000,5.500000000,5.000000000,1.000000000,2.000000000,3.000000000,,,,,,,,,,-0.587785252,
1733870209.688804,-0.453990500,1.000000000,2.000000000,5.500000000,5.000000000,1.000000000,2.000000000,3.000000000,,,,,,,,,,-0.481753674,
1733870209.696801,-0.522498565,1.000000000,2.000000000,5.500000000,5.000000000,1.000000000,2.000000000,3.000000000,,,,,,,,,,-0.368124553,
1733870209.706984,-0.587785252,1.000000000,2.000000000,5.500000000,5.000000000,1.000000000,2.000000000,3.000000000,,,,,,,,,,-0.248689887,
1733870209.717194,-0.649448048,1.000000000,2.000000000,5.500000000,5.000000000,1.000000000,2.000000000,3.000000000,,,,,,,,,,-0.125333234,
1733870209.728697,-0.707106781,1.000000000,2.000000000,5.500000000,5.000000000,1.000000000,2.000000000,3.000000000,,,,,,,,,,-0.000000000,
1733870209.737548,-0.760405966,1.000000000,2.000000000,5.500000000,5.000000000,1.000000000,2.000000000,3.000000000,,,,,,,,,,0.125333234,
1733870209.747783,-0.809016994,1.000000000,2.000000000,5.500000000,5.000000000,1.000000000,2.000000000,3.000000000,,,,,,,,,,0.248689887,
1733870209.765670,-0.852640164,1.000000000,2.000000000,5.500000000,5.000000000,1.000000000,2.000000000,3.000000000,,,,,,,,,,0.368124553,
1733870209.768436,-0.891006524,1.000000000,2.000000000,5.500000000,5.000000000,1.000000000,2.000000000,3.000000000,,,,,,,,,,0.481753674,
1733870209.778695,-0.923879533,1.000000000,2.000000000,5.500000000,5.000000000,1.000000000,2.000000000,3.000000000,,,,,,,,,,0.587785252,
1733870209.789046,-0.951056516,1.000000000,2.000000000,5.500000000,5.000000000,1.000000000,2.000000000,3.000000000,,,,,,,,,,0.684547106,
1733870209.799238,-0.972369920,1.000000000,2.000000000,5.500000000,5.000000000,1.000000000,2.000000000,3.000000000,,,,,,,,,,0.770513243,
1733870209.809383,-0.987688341,1.000000000,2.000000000,5.500000000,5.000000000,1.000000000,2.000000000,3.000000000,,,,,,,,,,0.844327926,
1733870209.819610,-0.996917334,1.000000000,2.000000000,5.500000000,5.000000000,1.000000000,2.000000000,3.000000000,,,,,,,,,,0.904827052,
1733870209.838665,-1.000000000,1.000000000,2.000000000,5.500000000,5.000000000,1.000000000,2.000000000,3.000000000,,,,,,,,,,0.951056516,
1733870209.839936,-0.996917334,1.000000000,2.000000000,5.500000000,5.000000000,1.000000000,2.000000000,3.000000000,,,,,,,,,,0.982287251,
1733870209.850151,-0.987688341,1.000000000,2.000000000,5.500000000,5.000000000,1.000000000,2.000000000,3.000000000,,,,,,,,,,0.998026728,
1733870209.860402,-0.972369920,1.000000000,2.000000000,5.500000000,5.000000000,1.000000000,2.000000000,3.000000000,,,,,,,,,,0.998026728,
1733870209.894539,-0.951056516,1.000000000,2.000000000,5.500000000,5.000000000,1.000000000,2.000000000,3.000000000,,,,,,,,,,0.982287251,
1733870209.894675,-0.923879533,1.000000000,2.000000000,5.500000000,5.000000000,1.000000000,2.000000000,3.000000000,,,,,,,,,,0.951056516,
1733870209.894693,-0.891006524,1.000000000,2.000000000,5.500000000,5.000000000,1.000000000,2.000000000,3.000000000,,,,,,,,,,0.904827052,
1733870209.901638,-0.852640164,1.000000000,2.000000000,5.500000000,5.000000000,1.000000000,2.000000000,3.000000000,,,,,,,,,,0.844327926,
1733870209.911908,-0.809016994,1.000000000,2.000000000,5.500000000,5.000000000,1.000000000,2.000000000,3.000000000,,,,,,,,,,0.770513243,
1733870209.952853,-0.760405966,1.000000000,2.000000000,5.500000000,5.000000000,1.000000000,2.000000000,3.000000000,,,,,,,,,,0.684547106,
1733870209.952945,-0.707106781,1.000000000,2.000000000,5.500000000,5.000000000,1.000000000,2.000000000,3.000000000,,,,,,,,,,0.587785252,
1733870209.952986,-0.649448048,1.000000000,2.000000000,5.500000000,5.000000000,1.000000000,2.000000000,3.000000000,,,,,,,,,,0.481753674,
1733870209.953241,-0.587785252,1.000000000,2.000000000,5.500000000,5.000000000,1.000000000,2.000000000,3.000000000,,,,,,,,,,0.368124553,
1733870209.963709,-0.522498565,1.000000000,2.000000000,5.500000000,5.000000000,1.000000000,2.000000000,3.000000000,,,,,,,,,,0.248689887,
1733870209.974059,-0.453990500,1.000000000,2.000000000,5.500000000,5.000000000,1.000000000,2.000000000,3.000000000,,,,,,,,,,0.125333234,
1733870209.984435,-0.382683432,1.000000000,2.000000000,5.500000000,5.000000000,1.000000000,2.000000000,3.000000000,,,,,,,,,,0.000000000,
1733870209.994799,-0.309016994,1.000000000,2.000000000,5.500000000,5.000000000,1.000000000,2.000000000,3.000000000,,,,,,,,,,-0.125333234,
1733870210.005098,-0.233445364,1.000000000,2.000000000,5.500000000,5.000000000,1.000000000,2.000000000,3.000000000,,,,,,,,,,-0.248689887,
1733870210.015538,-0.156434465,1.000000000,2.000000000,5.500000000,5.000000000,1.000000000,2.000000000,3.000000000,,,,,,,,,,-0.368124553,
1733870210.025901,-0.078459096,1.000000000,2.000000000,5.500000000,5.000000000,1.000000000,2.000000000,3.000000000,,,,,,,,,,-0.481753674,
1733870210.036230,0.000000000,1.000000000,2.000000000,5.500000000,5.000000000,1.000000000,2.000000000,3.000000000,,,,,,,,,,-0.587785252,
1733870210.046527,0.078459096,1.000000000,2.000000000,5.500000000,5.000000000,1.000000000,2.000000000,3.000000000,,,,,,,,,,-0.684547106,
1733870210.056883,0.156434465,1.000000000,2.000000000,5.500000000,5.000000000,1.000000000,2.000000000,3.000000000,,,,,,,,,,-0.770513243,
1733870210.067227,0.233445364,1.000000000,2.000000000,5.500000000,5.000000000,1.000000000,2.000000000,3.000000000,,,,,,,,,,-0.844327926,
1733870210.077475,0.309016994,1.000000000,2.000000000,5.500000000,5.000000000,1.000000000,2.000000000,3.000000000,,,,,,,,,,-0.904827052,
1733870210.087738,0.382683432,1.000000000,2.000000000,5.500000000,5.000000000,1.000000000,2.000000000,3.000000000,,,,,,,,,,-0.951056516,
1733870210.098080,0.453990500,1.000000000,2.000000000,5.500000000,5.000000000,1.000000000,2.000000000,3.000000000,,,,,,,,,,-0.982287251,
1733870210.108434,0.522498565,1.000000000,2.000000000,5.500000000,5.000000000,1.000000000,2.000000000,3.000000000,,,,,,,,,,-0.998026728,
1733870210.124515,0.587785252,1.000000000,2.000000000,5.500000000,5.000000000,1.000000000,2.000000000,3.000000000,,,,,,,,,,-0.998026728,
1733870210.129219,0.649448048,1.000000000,2.000000000,5.500000000,5.000000000,1.000000000,2.000000000,3.000000000,,,,,,,,,,-0.982287251,
1733870210.139506,0.707106781,1.000000000,2.000000000,5.500000000,5.000000000,1.000000000,2.000000000,3.000000000,,,,,,,,,,-0.951056516,
1733870210.149746,0.760405966,1.000000000,2.000000000,5.500000000,5.000000000,1.000000000,2.000000000,3.000000000,,,,,,,,,,-0.904827052,
1733870210.160020,0.809016994,1.000000000,2.000000000,5.500000000,5.000000000,1.000000000,2.000000000,3.000000000,,,,,,,,,,-0.844327926,
1733870210.170260,0.852640164,1.000000000,2.000000000,5.500000000,5.000000000,1.000000000,2.000000000,3.000000000,,,,,,,,,,-0.770513243,
1733870210.180447,0.891006524,1.000000000,2.000000000,5.500000000,5.000000000,1.000000000,2.000000000,3.000000000,,,,,,,,,,-0.684547106,
1733870210.190697,0.923879533,1.000000000,2.000000000,5.500000000,5.000000000,1.000000000,2.000000000,3.000000000,,,,,,,,,,-0.587785252,
1733870210.200945,0.951056516,1.000000000,2.000000000,5.500000000,5.000000000,1.000000000,2.000000000,3.000000000,,,,,,,,,,-0.481753674,
1733870210.211216,0.972369920,1.000000000,2.000000000,5.500000000,5.000000000,1.000000000,2.000000000,3.000000000,,,,,,,,,,-0.368124553,
1733870210.223442,0.987688341,1.000000000,2.000000000,5.500000000,5.000000000,1.000000000,2.000000000,3.000000000,,,,,,,,,,-0.248689887,
1733870210.231864,0.996917334,1.000000000,2.000000000,5.500000000,5.000000000,1.000000000,2.000000000,3.000000000,,,,,,,,,,-0.125333234,
1733870210.242197,1.000000000,1.000000000,2.000000000,5.500000000,5.000000000,1.000000000,2.000000000,3.000000000,,,,,,,,,,-0.000000000,
1733870210.252569,0.996917334,1.000000000,2.000000000,5.500000000,5.000000000,1.000000000,2.000000000,3.000000000,,,,,,,,,,0.125333234,
1733870210.262897,0.987688341,1.000000000,2.000000000,5.500000000,5.000000000,1.000000000,2.000000000,3.000000000,,,,,,,,,,0.248689887,
1733870210.273406,0.972369920,1.000000000,2.000000000,5.500000000,5.000000000,1.000000000,2.000000000,3.000000000,,,,,,,,,,0.368124553,
1733870210.283619,0.951056516,1.000000000,2.000000000,5.500000000,5.000000000,1.000000000,2.000000000,3.000000000,,,,,,,,,,0.481753674,
1733870210.293845,0.923879533,1.000000000,2.000000000,5.500000000,5.000000000,1.000000000,2.000000000,3.000000000,,,,,,,,,,0.587785252,
1733870210.304085,0.891006524,1.000000000,2.000000000,5.500000000,5.000000000,1.000000000,2.000000000,3.000000000,,,,,,,,,,0.684547106,
1733870210.314334,0.852640164,1.000000000,2.000000000,5.500000000,5.000000000,1.000000000,2.000000000,3.000000000,,,,,,,,,,0.770513243,
1733870210.324604,0.809016994,1.000000000,2.000000000,5.500000000,5.000000000,1.000000000,2.000000000,3.000000000,,,,,,,,,,0.844327926,
1733870210.334828,0.760405966,1.000000000,2.000000000,5.500000000,5.000000000,1.000000000,2.000000000,3.000000000,,,,,,,,,,0.904827052,
1733870210.345214,0.707106781,1.000000000,2.000000000,5.500000000,5.000000000,1.000000000,2.000000000,3.000000000,,,,,,,,,,0.951056516,
1733870210.355332,0.649448048,1.000000000,2.000000000,5.500000000,5.000000000,1.000000000,2.000000000,3.000000000,,,,,,,,,,0.982287251,
1733870210.365520,0.587785252,1.000000000,2.000000000,5.500000000,5.000000000,1.000000000,2.000000000,3.000000000,,,,,,,,,,0.998026728,
1733870210.375696,0.522498565,1.000000000,2.000000000,5.500000000,5.000000000,1.000000000,2.000000000,3.000000000,,,,,,,,,,0.998026728,
1733870210.385916,0.453990500,1.000000000,2.000000000,5.500000000,5.000000000,1.000000000,2.000000000,3.000000000,,,,,,,,,,0.982287251,
1733870210.396214,0.382683432,1.000000000,2.000000000,5.500000000,5.000000000,1.000000000,2.000000000,3.000000000,,,,,,,,,,0.951056516,
1733870210.406459,0.309016994,1.000000000,2.000000000,5.500000000,5.000000000,1.000000000,2.000000000,3.000000000,,,,,,,,,,0.904827052,
1733870210.416664,0.233445364,1.000000000,2.000000000,5.500000000,5.000000000,1.000000000,2.000000000,3.000000000,,,,,,,,,,0.844327926,
1733870210.426792,0.156434465,1.000000000,2.000000000,5.500000000,5.000000000,1.000000000,2.000000000,3.000000000,,,,,,,,,,0.770513243,
1733870210.437131,0.078459096,1.000000000,2.000000000,5.500000000,5.000000000,1.000000000,2.000000000,3.000000000,,,,,,,,,,0.684547106,
1733870210.447454,-0.000000000,1.000000000,2.000000000,5.500000000,5.000000000,1.000000000,2.000000000,3.000000000,,,,,,,,,,0.587785252,
1733870210.457803,-0.078459096,1.000000000,2.000000000,5.500000000,5.000000000,1.000000000,2.000000000,3.000000000,,,,,,,,,,0.481753674,
1733870210.468115,-0.156434465,1.000000000,2.000000000,5.500000000,5.000000000,1.000000000,2.000000000,3.000000000,,,,,,,,,,0.368124553,
1733870210.478473,-0.233445364,1.000000000,2.000000000,5.500000000,5.000000000,1.000000000,2.000000000,3.000000000,,,,,,,,,,0.248689887,
1733870210.488932,-0.309016994,1.000000000,2.000000000,5.500000000,5.000000000,1.000000000,2.000000000,3.000000000,,,,,,,,,,0.125333234,
1733870210.499214,-0.382683432,1.000000000,2.000000000,5.500000000,5.000000000,1.000000000,2.000000000,3.000000000,,,,,,,,,,-0.000000000,
1733870210.509503,-0.453990500,1.000000000,2.000000000,5.500000000,5.000000000,1.000000000,2.000000000,3.000000000,,,,,,,,,,-0.125333234,
1733870210.523569,-0.522498565,1.000000000,2.000000000,5.500000000,5.000000000,1.000000000,2.000000000,3.000000000,,,,,,,,,,-0.248689887,
1733870210.530098,-0.587785252,1.000000000,2.000000000,5.500000000,5.000000000,1.000000000,2.000000000,3.000000000,,,,,,,,,,-0.368124553,
1733870210.540443,-0.649448048,1.000000000,2.000000000,5.500000000,5.000000000,1.000000000,2.000000000,3.000000000,,,,,,,,,,-0.481753674,
1733870210.550900,-0.707106781,1.000000000,2.000000000,5.500000000,5.000000000,1.000000000,2.000000000,3.000000000,,,,,,,,,,-0.587785252,
1733870210.561260,-0.760405966,1.000000000,2.000000000,5.500000000,5.000000000,1.000000000,2.000000000,3.000000000,,,,,,,,,,-0.684547106,
1733870210.571588,-0.809016994,1.000000000,2.000000000,5.500000000,5.000000000,1.000000000,2.000000000,3.000000000,,,,,,,,,,-0.770513243,
1733870210.581839,-0.852640164,1.000000000,2.000000000,5.500000000,5.000000000,1.000000000,2.000000000,3.000000000,,,,,,,,,,-0.844327926,
1733870210.592170,-0.891006524,1.000000000,2.000000000,5.500000000,5.000000000,1.000000000,2.000000000,3.000000000,,,,,,,,,,-0.904827052,
1733870210.602525,-0.923879533,1.000000000,2.000000000,5.500000000,5.000000000,1.000000000,2.000000000,3.000000000,,,,,,,,,,-0.951056516,
1733870210.618471,-0.951056516,1.000000000,2.000000000,5.500000000,5.000000000,1.000000000,2.000000000,3.000000000,,,,,,,,,,-0.982287251,
